[
    {
        "departement": "00",
        "nom_departement": "Corse",
        "station": [
            {
                "codeStation": "ME057",
                "name": "[MAE] AJACCIO",
                "latitude": 41.919229,
                "longitude": 8.738635
            }
        ],
        "avg_latitude": 41.919229,
        "avg_longitude": 8.738635
    },
    {
        "departement": "01",
        "nom_departement": "Ain",
        "station": [
            {
                "codeStation": "000K0",
                "name": "Viriat",
                "latitude": 46.25484,
                "longitude": 5.21567
            },
            {
                "codeStation": "000V0",
                "name": "Innimond",
                "latitude": 45.78262,
                "longitude": 5.5725
            },
            {
                "codeStation": "000Y5",
                "name": "Briord (Vérizieu)",
                "latitude": 45.777,
                "longitude": 5.487
            },
            {
                "codeStation": "000AK",
                "name": "Saint-André-de-Corcy",
                "latitude": 45.9259,
                "longitude": 4.95166
            },
            {
                "codeStation": "000FI",
                "name": "Ambérieu-en-Bugey",
                "latitude": 45.95885,
                "longitude": 5.3432
            },
            {
                "codeStation": "000FX",
                "name": "Pont-d'Ain",
                "latitude": 46.04789,
                "longitude": 5.3368
            },
            {
                "codeStation": "000MQ",
                "name": "Priay",
                "latitude": 46.00188,
                "longitude": 5.28775
            },
            {
                "codeStation": "000RB",
                "name": "Buellas",
                "latitude": 46.2111,
                "longitude": 5.1322
            },
            {
                "codeStation": "000VI",
                "name": "Apremont",
                "latitude": 46.211052,
                "longitude": 5.667183
            },
            {
                "codeStation": "000XY",
                "name": "Trévoux",
                "latitude": 45.94111,
                "longitude": 4.76727
            },
            {
                "codeStation": "000ZO",
                "name": "Bressolles",
                "latitude": 45.8626,
                "longitude": 5.08962
            }
        ],
        "avg_latitude": 45.9977129090909,
        "avg_longitude": 5.2591684545454545
    },
    {
        "departement": "02",
        "nom_departement": "Aisne",
        "station": [
            {
                "codeStation": "000J9",
                "name": "Nogentel",
                "latitude": 49.0161,
                "longitude": 3.4004
            },
            {
                "codeStation": "000AU",
                "name": "Chézy-sur-Marne",
                "latitude": 48.98881,
                "longitude": 3.36786
            },
            {
                "codeStation": "000HC",
                "name": "Variscourt",
                "latitude": 49.41718,
                "longitude": 3.98574
            },
            {
                "codeStation": "000RC",
                "name": "Jussy",
                "latitude": 49.716964,
                "longitude": 3.23613
            },
            {
                "codeStation": "STATIC0023",
                "name": "Bonneil",
                "latitude": 49.009,
                "longitude": 3.35246
            },
            {
                "codeStation": "STATIC0105",
                "name": "Chivy-lès-Étouvelles",
                "latitude": 49.52638,
                "longitude": 3.58513
            },
            {
                "codeStation": "STATIC0184",
                "name": "Cessières-Suzy - Tourbière de Cessières-Montbavin",
                "latitude": 49.5449,
                "longitude": 3.51077
            }
        ],
        "avg_latitude": 49.317047714285714,
        "avg_longitude": 3.4912128571428576
    },
    {
        "departement": "03",
        "nom_departement": "Allier",
        "station": [
            {
                "codeStation": "000H4",
                "name": "Meillers",
                "latitude": 46.5,
                "longitude": 3.08333
            },
            {
                "codeStation": "000E2",
                "name": "Saint-Martinien",
                "latitude": 46.3383611,
                "longitude": 2.47291666
            },
            {
                "codeStation": "000J2",
                "name": "Villebret",
                "latitude": 46.26685,
                "longitude": 2.63827
            },
            {
                "codeStation": "000P4",
                "name": "Ferrières sur Sichon - Cheval Rigon",
                "latitude": 46.03951,
                "longitude": 3.60768
            },
            {
                "codeStation": "000DS",
                "name": "Néris-les-Bains",
                "latitude": 46.28688,
                "longitude": 2.65869
            },
            {
                "codeStation": "ME004",
                "name": "[MAE] Collège Charlotte Delbo - TRONGET",
                "latitude": 46.420724663427,
                "longitude": 3.0674639582634
            },
            {
                "codeStation": "000RM",
                "name": "Lignerolles",
                "latitude": 46.28333,
                "longitude": 2.56667
            },
            {
                "codeStation": "000UE",
                "name": "Besson - Chassignolles",
                "latitude": 46.4703,
                "longitude": 3.28275
            },
            {
                "codeStation": "STATIC0092",
                "name": "Saint-Bonnet-de-Four",
                "latitude": 46.2985,
                "longitude": 2.92282
            },
            {
                "codeStation": "STATIC0114",
                "name": "Besson - La Barillette",
                "latitude": 46.4794,
                "longitude": 3.27577
            },
            {
                "codeStation": "STATIC0131",
                "name": "La Chapelle",
                "latitude": 46.0809,
                "longitude": 3.57678
            }
        ],
        "avg_latitude": 46.31497779667518,
        "avg_longitude": 3.0139218743875817
    },
    {
        "departement": "04",
        "nom_departement": "Alpes-de-Haute-Provence",
        "station": [
            {
                "codeStation": "000R2",
                "name": "Digne-les-Bains",
                "latitude": 44.10429,
                "longitude": 6.23191
            },
            {
                "codeStation": "000EH",
                "name": "Annot",
                "latitude": 43.9619095,
                "longitude": 6.665225
            },
            {
                "codeStation": "000FE",
                "name": "La Javie",
                "latitude": 44.16667,
                "longitude": 6.35
            },
            {
                "codeStation": "ME049",
                "name": "[MAE] Lycée André Honnorat - BARCELONNETTE",
                "latitude": 44.387778,
                "longitude": 6.641111
            },
            {
                "codeStation": "ME136",
                "name": "[MAE] Lycée André Honnorat - BARCELONNETTE",
                "latitude": 44.3885154,
                "longitude": 6.6529124
            },
            {
                "codeStation": "000NL",
                "name": "Saint-Paul-sur-Ubaye - Maljasset",
                "latitude": 44.59295,
                "longitude": 6.84
            },
            {
                "codeStation": "000WM",
                "name": "Sisteron - Plan de la Baume",
                "latitude": 44.2116,
                "longitude": 5.94294
            },
            {
                "codeStation": "000YD",
                "name": "Allos",
                "latitude": 44.278,
                "longitude": 6.57712
            },
            {
                "codeStation": "CAYOLLE",
                "name": "Cirque de la Grande Cayolle - Uvernet-Fours",
                "latitude": 44.26898,
                "longitude": 6.711627
            },
            {
                "codeStation": "STATIC0117",
                "name": "Châteaufort",
                "latitude": 44.25932,
                "longitude": 6.00433
            }
        ],
        "avg_latitude": 44.26200128999999,
        "avg_longitude": 6.46171754
    },
    {
        "departement": "05",
        "nom_departement": "Hautes-Alpes",
        "station": [
            {
                "codeStation": "07591",
                "name": "Embrun",
                "latitude": 44.567,
                "longitude": 6.503
            },
            {
                "codeStation": "00072",
                "name": "Briançon",
                "latitude": 44.896389,
                "longitude": 6.635556
            },
            {
                "codeStation": "000I7",
                "name": "Eygliers",
                "latitude": 44.6773811394476,
                "longitude": 6.61900520324707
            },
            {
                "codeStation": "000K7",
                "name": "Saint-Léger-les-Mélèzes",
                "latitude": 44.64409,
                "longitude": 6.2
            },
            {
                "codeStation": "000U2",
                "name": "Puy-Saint-Pierre",
                "latitude": 44.89348,
                "longitude": 6.6268
            },
            {
                "codeStation": "000U6",
                "name": "Orcières - Chauffarel",
                "latitude": 44.68143,
                "longitude": 6.293677
            },
            {
                "codeStation": "000W9",
                "name": "Gap",
                "latitude": 44.5373,
                "longitude": 6.04368
            },
            {
                "codeStation": "000QV",
                "name": "Ristolas",
                "latitude": 44.77361,
                "longitude": 6.95538
            },
            {
                "codeStation": "000SX",
                "name": "Vars - Col de Jaffueil",
                "latitude": 44.5582,
                "longitude": 6.6504
            },
            {
                "codeStation": "000TG",
                "name": "Névache",
                "latitude": 45.018,
                "longitude": 6.622
            },
            {
                "codeStation": "000UX",
                "name": "Aiguilles",
                "latitude": 44.78149,
                "longitude": 6.86943
            },
            {
                "codeStation": "STATIC0014",
                "name": "Saint-Sauveur",
                "latitude": 44.524,
                "longitude": 6.52302
            },
            {
                "codeStation": "STATIC0032",
                "name": "Saint-Étienne-en-Dévoluy - Vallon d'Ane",
                "latitude": 44.6487,
                "longitude": 5.94515
            },
            {
                "codeStation": "STATIC0185",
                "name": "La Freissinouse",
                "latitude": 44.5288,
                "longitude": 6.00667
            },
            {
                "codeStation": "STATIC0198",
                "name": "La Bâtie-Vieille",
                "latitude": 44.5554,
                "longitude": 6.15767
            }
        ],
        "avg_latitude": 44.68568467596318,
        "avg_longitude": 6.443429213549805
    },
    {
        "departement": "06",
        "nom_departement": "Alpes-Maritimes",
        "station": [
            {
                "codeStation": "07690",
                "name": "Nice - Côte d'Azur",
                "latitude": 43.653,
                "longitude": 7.2
            },
            {
                "codeStation": "000GG",
                "name": "Clans",
                "latitude": 43.99593,
                "longitude": 7.14797
            },
            {
                "codeStation": "000GH",
                "name": "Ilonse",
                "latitude": 44.02943,
                "longitude": 7.09854
            },
            {
                "codeStation": "000HD",
                "name": "Nice - Pessicart",
                "latitude": 43.721694,
                "longitude": 7.241889
            },
            {
                "codeStation": "000HL",
                "name": "Vence",
                "latitude": 43.719735,
                "longitude": 7.090734
            },
            {
                "codeStation": "ME015",
                "name": "[MAE] Collège L'Eeau Vive - BREIL-SUR-ROYA",
                "latitude": 43.9403667,
                "longitude": 7.5139
            },
            {
                "codeStation": "000MX",
                "name": "Saint-Vallier-de-Thiey",
                "latitude": 43.69539,
                "longitude": 6.8443
            },
            {
                "codeStation": "000NF",
                "name": "Cipières",
                "latitude": 43.78119,
                "longitude": 6.95185
            },
            {
                "codeStation": "ME138",
                "name": "[MAE] Centre International de Valbonne - VALBONNE",
                "latitude": 43.6215604,
                "longitude": 7.041474200000039
            },
            {
                "codeStation": "000PK",
                "name": "Gilette - La Clave",
                "latitude": 43.848274,
                "longitude": 7.149546
            },
            {
                "codeStation": "000PO",
                "name": "Biot - Polytech Nice Sophia",
                "latitude": 43.615886,
                "longitude": 7.069986
            },
            {
                "codeStation": "000SN",
                "name": "Saorge",
                "latitude": 43.98745,
                "longitude": 7.55294
            },
            {
                "codeStation": "000TX",
                "name": "Marie - Caïre Gros",
                "latitude": 44.0473,
                "longitude": 7.20033
            },
            {
                "codeStation": "000XM",
                "name": "Caille",
                "latitude": 43.7783,
                "longitude": 6.73626
            },
            {
                "codeStation": "000XN",
                "name": "La Turbie",
                "latitude": 43.7499,
                "longitude": 7.41218
            },
            {
                "codeStation": "000YZ",
                "name": "Sospel",
                "latitude": 43.8876,
                "longitude": 7.47597
            },
            {
                "codeStation": "000ZC",
                "name": "Tende - Castérino",
                "latitude": 44.0974,
                "longitude": 7.50595
            },
            {
                "codeStation": "STATIC0033",
                "name": "Vence - Avenue Giraud",
                "latitude": 43.72162,
                "longitude": 7.11232
            },
            {
                "codeStation": "ENTRAUNES",
                "name": "Entraunes - Cabanes de la Boulière (Réserve Intégrale de Roche Grande)",
                "latitude": 44.196677,
                "longitude": 6.79765
            },
            {
                "codeStation": "STATIC0146",
                "name": "Isola",
                "latitude": 44.1848,
                "longitude": 7.0563
            },
            {
                "codeStation": "STATIC0174",
                "name": "Castellar",
                "latitude": 43.7987,
                "longitude": 7.50574
            },
            {
                "codeStation": "STATIC0175",
                "name": "Lantosque",
                "latitude": 43.9532,
                "longitude": 7.32912
            }
        ],
        "avg_latitude": 43.86479105,
        "avg_longitude": 7.183406781818183
    },
    {
        "departement": "07",
        "nom_departement": "Ardèche",
        "station": [
            {
                "codeStation": "000VQ",
                "name": "Dent de Rez",
                "latitude": 44.42884,
                "longitude": 4.5022
            },
            {
                "codeStation": "000X1",
                "name": "Bourg-Saint-Andéol",
                "latitude": 44.37566,
                "longitude": 4.64273
            },
            {
                "codeStation": "000CN",
                "name": "Tournon-sur-Rhône",
                "latitude": 45.064,
                "longitude": 4.8462
            },
            {
                "codeStation": "000CZ",
                "name": "Peaugres",
                "latitude": 45.2875,
                "longitude": 4.7292
            },
            {
                "codeStation": "000EU",
                "name": "Vernosc-lès-Annonay",
                "latitude": 45.21676,
                "longitude": 4.71252
            },
            {
                "codeStation": "000FK",
                "name": "Malbosc",
                "latitude": 44.34736,
                "longitude": 4.07408
            },
            {
                "codeStation": "000FR",
                "name": "Borne - La Croix de Bauzon",
                "latitude": 44.629074,
                "longitude": 4.089074
            },
            {
                "codeStation": "000GC",
                "name": "Annonay",
                "latitude": 45.236162,
                "longitude": 4.67694
            },
            {
                "codeStation": "000GQ",
                "name": "Charnas",
                "latitude": 45.33691,
                "longitude": 4.74391
            },
            {
                "codeStation": "000PX",
                "name": "Annonay - Chatinais",
                "latitude": 45.2456,
                "longitude": 4.6377
            },
            {
                "codeStation": "000PY",
                "name": "Thorrenc",
                "latitude": 45.2424,
                "longitude": 4.7579
            },
            {
                "codeStation": "000UK",
                "name": "Lanarce - Tourbière de Sagne Redonde",
                "latitude": 44.73069,
                "longitude": 4.0048
            },
            {
                "codeStation": "STATIC0073",
                "name": "Issanlas",
                "latitude": 44.7644,
                "longitude": 4.02372
            },
            {
                "codeStation": "STATIC0096",
                "name": "Lachamp-Raphaël",
                "latitude": 44.81008,
                "longitude": 4.28908
            },
            {
                "codeStation": "STATIC0120",
                "name": "Lachapelle-Graillouse - Moulin de Courbet",
                "latitude": 44.81449,
                "longitude": 4.01968
            },
            {
                "codeStation": "STATIC0222",
                "name": "Sagnes-et-Goudoulet",
                "latitude": 44.7963,
                "longitude": 4.18631
            }
        ],
        "avg_latitude": 44.895389124999994,
        "avg_longitude": 4.433502750000001
    },
    {
        "departement": "08",
        "nom_departement": "Ardennes",
        "station": [
            {
                "codeStation": "000I5",
                "name": "Bulson",
                "latitude": 49.6333333,
                "longitude": 4.9166667
            },
            {
                "codeStation": "000S4",
                "name": "Sorcy-Bauthémont",
                "latitude": 49.5386,
                "longitude": 4.5367
            },
            {
                "codeStation": "000NW",
                "name": "Charleville-Mézières - Mohon",
                "latitude": 49.747,
                "longitude": 4.735
            },
            {
                "codeStation": "000TD",
                "name": "Douzy",
                "latitude": 49.6708,
                "longitude": 5.04156
            }
        ],
        "avg_latitude": 49.647433324999994,
        "avg_longitude": 4.807481675
    },
    {
        "departement": "09",
        "nom_departement": "Ariège",
        "station": [
            {
                "codeStation": "07627",
                "name": "Saint-Girons - Antichan",
                "latitude": 43.0019989013672,
                "longitude": 1.10699999332428
            },
            {
                "codeStation": "000AJ",
                "name": "Léran",
                "latitude": 42.98707,
                "longitude": 1.90958
            },
            {
                "codeStation": "000FV",
                "name": "Bélesta",
                "latitude": 42.90228,
                "longitude": 1.93325
            },
            {
                "codeStation": "000ND",
                "name": "Mirepoix",
                "latitude": 43.08773,
                "longitude": 1.8735
            },
            {
                "codeStation": "000RO",
                "name": "Vicdessos",
                "latitude": 42.76947,
                "longitude": 1.49542
            },
            {
                "codeStation": "STATIC0075",
                "name": "L'Herm",
                "latitude": 42.9721,
                "longitude": 1.71244
            }
        ],
        "avg_latitude": 42.9534414835612,
        "avg_longitude": 1.67186499888738
    },
    {
        "departement": "10",
        "nom_departement": "Aube",
        "station": [
            {
                "codeStation": "07168",
                "name": "Troyes-Barberey",
                "latitude": 48.3279991149902,
                "longitude": 4.02299976348877
            },
            {
                "codeStation": "000BQ",
                "name": "Colombé-le-Sec",
                "latitude": 48.255144,
                "longitude": 4.782931
            }
        ],
        "avg_latitude": 48.291571557495104,
        "avg_longitude": 4.4029653817443855
    },
    {
        "departement": "11",
        "nom_departement": "Aude",
        "station": [
            {
                "codeStation": "00018",
                "name": "Ferrals-lès-Corbières",
                "latitude": 43.15,
                "longitude": 2.7333
            },
            {
                "codeStation": "000W6",
                "name": "Quillan",
                "latitude": 42.87579,
                "longitude": 2.18176
            },
            {
                "codeStation": "000W7",
                "name": "Roquefeuil",
                "latitude": 42.854787,
                "longitude": 2.00716
            },
            {
                "codeStation": "000DP",
                "name": "Montréal",
                "latitude": 43.1998,
                "longitude": 2.14122
            },
            {
                "codeStation": "000DQ",
                "name": "Saint-Nazaire-d'Aude",
                "latitude": 43.24518,
                "longitude": 2.89443
            },
            {
                "codeStation": "000EQ",
                "name": "Montredon-des-Corbières",
                "latitude": 43.18333,
                "longitude": 2.93333
            },
            {
                "codeStation": "000MN",
                "name": "Gruissan",
                "latitude": 43.10563,
                "longitude": 3.101
            },
            {
                "codeStation": "ME016",
                "name": "[MAE] Collège Joseph Anglade - LEZIGNAN",
                "latitude": 43.1978008084,
                "longitude": 2.7643918991089
            },
            {
                "codeStation": "ME118",
                "name": "[MAE] Collège Joseph Anglade - LEZIGNAN CORBIERES",
                "latitude": 43.196971,
                "longitude": 2.765773
            },
            {
                "codeStation": "000NI",
                "name": "Sallèles-d'Aude",
                "latitude": 43.25953,
                "longitude": 2.94614
            },
            {
                "codeStation": "000UW",
                "name": "Comus",
                "latitude": 42.81177,
                "longitude": 1.88972
            },
            {
                "codeStation": "STATIC0087",
                "name": "Camurac",
                "latitude": 42.7747,
                "longitude": 1.92831
            },
            {
                "codeStation": "STATIC0149",
                "name": "Malviès",
                "latitude": 43.120511,
                "longitude": 2.182729
            }
        ],
        "avg_latitude": 43.075061523723086,
        "avg_longitude": 2.4976356845468386
    },
    {
        "departement": "12",
        "nom_departement": "Aveyron",
        "station": [
            {
                "codeStation": "07558",
                "name": "Millau - Soulobres",
                "latitude": 44.1180000305176,
                "longitude": 3.01999998092651
            },
            {
                "codeStation": "000AI",
                "name": "Millau (1)",
                "latitude": 44.1,
                "longitude": 3.06
            },
            {
                "codeStation": "000CI",
                "name": "Anglars-Saint-Félix",
                "latitude": 44.42309,
                "longitude": 2.21881
            },
            {
                "codeStation": "000DC",
                "name": "Firmi",
                "latitude": 44.547914,
                "longitude": 2.311542
            },
            {
                "codeStation": "000MV",
                "name": "Millau",
                "latitude": 44.1,
                "longitude": 3.08333
            },
            {
                "codeStation": "000US",
                "name": "La Bastide-l'Evêque",
                "latitude": 44.34,
                "longitude": 2.1362
            },
            {
                "codeStation": "STATIC0183",
                "name": "Sainte-Radegonde",
                "latitude": 44.3383,
                "longitude": 2.60187
            }
        ],
        "avg_latitude": 44.281043432931085,
        "avg_longitude": 2.6331074258466445
    },
    {
        "departement": "13",
        "nom_departement": "Bouches-du-Rhône",
        "station": [
            {
                "codeStation": "07650",
                "name": "Marseille-Marignane (Marseille Provence)",
                "latitude": 43.442,
                "longitude": 5.227
            },
            {
                "codeStation": "00075",
                "name": "Peypin",
                "latitude": 43.391332,
                "longitude": 5.5514
            },
            {
                "codeStation": "000C4",
                "name": "Marseille-Corniche",
                "latitude": 43.2747,
                "longitude": 5.3598
            },
            {
                "codeStation": "000L4",
                "name": "Roquevaire - Vallon du Gaudissard",
                "latitude": 43.3443,
                "longitude": 5.5725
            },
            {
                "codeStation": "000Z8",
                "name": "Aix-en-Provence",
                "latitude": 43.510673,
                "longitude": 5.459174
            },
            {
                "codeStation": "000AY",
                "name": "Les Pennes-Mirabeau",
                "latitude": 43.41028,
                "longitude": 5.31306
            },
            {
                "codeStation": "000BL",
                "name": "Marseille - Saména",
                "latitude": 43.22863,
                "longitude": 5.35002
            },
            {
                "codeStation": "000BY",
                "name": "Cabannes",
                "latitude": 43.86667,
                "longitude": 4.95
            },
            {
                "codeStation": "000CL",
                "name": "Gréasque - La Diote",
                "latitude": 43.42776,
                "longitude": 5.537502
            },
            {
                "codeStation": "ME003",
                "name": "[MAE] Lycée Emile Zola - AIX EN PROVENCE",
                "latitude": 43.510894408718,
                "longitude": 5.4591016769409
            },
            {
                "codeStation": "000NP",
                "name": "Simiane-Collongue",
                "latitude": 43.440777,
                "longitude": 5.441715
            },
            {
                "codeStation": "000SH",
                "name": "Saint-Paul-lès-Durance",
                "latitude": 43.68333,
                "longitude": 5.7
            },
            {
                "codeStation": "STATIC0054",
                "name": "Martigues",
                "latitude": 43.40735,
                "longitude": 5.05526
            },
            {
                "codeStation": "STATIC0144",
                "name": "Saintes-Maries-de-la-Mer - Pioch Badet",
                "latitude": 43.5272,
                "longitude": 4.39899
            },
            {
                "codeStation": "STATIC0148",
                "name": "Venelles",
                "latitude": 43.59839,
                "longitude": 5.4853
            }
        ],
        "avg_latitude": 43.47095242724786,
        "avg_longitude": 5.324054845129394
    },
    {
        "departement": "14",
        "nom_departement": "Calvados",
        "station": [
            {
                "codeStation": "07027",
                "name": "Caen-Carpiquet",
                "latitude": 49.181999206543,
                "longitude": -0.462999999523163
            },
            {
                "codeStation": "000HO",
                "name": "Estrées-la-Campagne",
                "latitude": 49.01667,
                "longitude": -0.23333
            },
            {
                "codeStation": "ME048",
                "name": "[MAE] Collège Letot - BAYEUX",
                "latitude": 49.27483,
                "longitude": -0.71233
            },
            {
                "codeStation": "000QA",
                "name": "Fontenermont",
                "latitude": 48.82357,
                "longitude": -1.105
            },
            {
                "codeStation": "000TZ",
                "name": "Asnelles",
                "latitude": 49.33969,
                "longitude": -0.58302
            },
            {
                "codeStation": "STATIC0012",
                "name": "Tordouet",
                "latitude": 49.047,
                "longitude": 0.328119
            }
        ],
        "avg_latitude": 49.11395986775716,
        "avg_longitude": -0.46142683325386047
    },
    {
        "departement": "15",
        "nom_departement": "Cantal",
        "station": [
            {
                "codeStation": "000B6",
                "name": "Salins",
                "latitude": 45.1911,
                "longitude": 2.3914
            },
            {
                "codeStation": "000L1",
                "name": "Cheylade - Vallée de la Rhue",
                "latitude": 45.175,
                "longitude": 2.7
            },
            {
                "codeStation": "000W5",
                "name": "Vieillevie",
                "latitude": 44.64484,
                "longitude": 2.41965
            },
            {
                "codeStation": "000FW",
                "name": "Massiac",
                "latitude": 45.25551,
                "longitude": 3.19759
            },
            {
                "codeStation": "ME108",
                "name": "[MAE] Collège La Ponétie - AURILLAC",
                "latitude": 44.903911,
                "longitude": 2.44879
            },
            {
                "codeStation": "000NT",
                "name": "Le Falgoux",
                "latitude": 45.15,
                "longitude": 2.61667
            },
            {
                "codeStation": "000SS",
                "name": "Mandailles-Saint-Julien",
                "latitude": 45.084,
                "longitude": 2.6699
            },
            {
                "codeStation": "000UH",
                "name": "Saint-Paul-des-Landes",
                "latitude": 44.94416,
                "longitude": 2.3142
            },
            {
                "codeStation": "000ZS",
                "name": "Brezons",
                "latitude": 44.96885,
                "longitude": 2.8069
            },
            {
                "codeStation": "STATIC0186",
                "name": "Anglards-de-Salers",
                "latitude": 45.22167,
                "longitude": 2.40669
            }
        ],
        "avg_latitude": 45.0539041,
        "avg_longitude": 2.5971789999999997
    },
    {
        "departement": "16",
        "nom_departement": "Charente",
        "station": [
            {
                "codeStation": "000L9",
                "name": "Genac",
                "latitude": 45.794722,
                "longitude": 0.029167
            },
            {
                "codeStation": "000Z6",
                "name": "Brigueuil",
                "latitude": 45.964076,
                "longitude": 0.843665
            },
            {
                "codeStation": "000AX",
                "name": "Saint-Laurent-de-Cognac",
                "latitude": 45.69695,
                "longitude": -0.40898
            },
            {
                "codeStation": "000HB",
                "name": "Nonaville",
                "latitude": 45.53333,
                "longitude": -0.08333
            },
            {
                "codeStation": "000ML",
                "name": "Chassors",
                "latitude": 45.714,
                "longitude": -0.204
            },
            {
                "codeStation": "000OP",
                "name": "Mareuil",
                "latitude": 45.77332,
                "longitude": -0.14192
            },
            {
                "codeStation": "000PJ",
                "name": "Charmant",
                "latitude": 45.4951,
                "longitude": 0.174
            },
            {
                "codeStation": "STATIC0011",
                "name": "Vouzan",
                "latitude": 45.5786,
                "longitude": 0.352592
            },
            {
                "codeStation": "STATIC0223",
                "name": "Genac - Pontour",
                "latitude": 45.8164,
                "longitude": 0.0372291
            }
        ],
        "avg_latitude": 45.70738866666667,
        "avg_longitude": 0.06649145555555556
    },
    {
        "departement": "17",
        "nom_departement": "Charente-Maritime",
        "station": [
            {
                "codeStation": "07314",
                "name": "Pointe de Chassiron",
                "latitude": 46.047,
                "longitude": -1.41
            },
            {
                "codeStation": "00001",
                "name": "Saint-Médard-d'Aunis",
                "latitude": 46.15,
                "longitude": -0.96
            },
            {
                "codeStation": "00051",
                "name": "Cramchaban",
                "latitude": 46.2193,
                "longitude": -0.722149
            },
            {
                "codeStation": "00080",
                "name": "Angliers",
                "latitude": 46.2111,
                "longitude": -0.9514
            },
            {
                "codeStation": "000G6",
                "name": "Aigrefeuille-d'Aunis",
                "latitude": 46.1167,
                "longitude": -0.93333
            },
            {
                "codeStation": "000M6",
                "name": "Arvert (1)",
                "latitude": 45.74486,
                "longitude": -1.126
            },
            {
                "codeStation": "000Q7",
                "name": "Aigrefeuille-d'Aunis - Château-d'eau",
                "latitude": 46.11539,
                "longitude": -0.93689
            },
            {
                "codeStation": "000X3",
                "name": "Montroy",
                "latitude": 46.15543,
                "longitude": -1.01094
            },
            {
                "codeStation": "000AF",
                "name": "Boisredon",
                "latitude": 45.31482,
                "longitude": -0.5381
            },
            {
                "codeStation": "000BO",
                "name": "Arces",
                "latitude": 45.58375,
                "longitude": -0.83178
            },
            {
                "codeStation": "000DF",
                "name": "Arvert (2)",
                "latitude": 45.74486,
                "longitude": -1.124
            },
            {
                "codeStation": "000DM",
                "name": "Saint-Georges-d'Oléron",
                "latitude": 45.9683291,
                "longitude": -1.3607518
            },
            {
                "codeStation": "000GL",
                "name": "Aytré-Plage",
                "latitude": 46.12,
                "longitude": -1.124326
            },
            {
                "codeStation": "000LV",
                "name": "Saint-Denis-d'Oléron",
                "latitude": 46.03496,
                "longitude": -1.37867
            },
            {
                "codeStation": "ME017",
                "name": "[MAE] Lycée Saint Exupéry - LA ROCHELLE",
                "latitude": 46.1552778,
                "longitude": -1.17583333
            },
            {
                "codeStation": "000NZ",
                "name": "Chepniers",
                "latitude": 45.25495,
                "longitude": -0.30762
            },
            {
                "codeStation": "000RQ",
                "name": "Breuillet",
                "latitude": 45.6945,
                "longitude": -1.0699
            },
            {
                "codeStation": "000ST",
                "name": "Pointe de Châtelaillon",
                "latitude": 46.062054,
                "longitude": -1.092516
            },
            {
                "codeStation": "000TQ",
                "name": "Nieul-sur-Mer - Pointe du Plomb",
                "latitude": 46.20319,
                "longitude": -1.2057
            },
            {
                "codeStation": "000YW",
                "name": "Archingeay",
                "latitude": 45.941,
                "longitude": -0.71343
            },
            {
                "codeStation": "STATIC0070",
                "name": "Fontcouverte",
                "latitude": 45.7624,
                "longitude": -0.616586
            },
            {
                "codeStation": "STATIC0122",
                "name": "Saint-André-de-Lidon",
                "latitude": 45.5991,
                "longitude": -0.747339
            },
            {
                "codeStation": "STATIC0124",
                "name": "Châtelaillon-Plage - Hippodrome",
                "latitude": 46.0755,
                "longitude": -1.07795
            },
            {
                "codeStation": "STATIC0134",
                "name": "Ile d'Aix",
                "latitude": 46.0124,
                "longitude": -1.1735
            },
            {
                "codeStation": "STATIC0171",
                "name": "Sainte-Soulle",
                "latitude": 46.1862,
                "longitude": -1.02019
            }
        ],
        "avg_latitude": 45.938922836,
        "avg_longitude": -0.9843560452000001
    },
    {
        "departement": "18",
        "nom_departement": "Cher",
        "station": [
            {
                "codeStation": "07255",
                "name": "Bourges",
                "latitude": 47.0579986572266,
                "longitude": 2.36199998855591
            },
            {
                "codeStation": "000B8",
                "name": "Augy-sur-Aubois",
                "latitude": 46.77,
                "longitude": 2.83
            },
            {
                "codeStation": "000DD",
                "name": "Vinon",
                "latitude": 47.28543,
                "longitude": 2.82391
            },
            {
                "codeStation": "000QS",
                "name": "Bannay",
                "latitude": 47.3879,
                "longitude": 2.88381
            },
            {
                "codeStation": "000RE",
                "name": "Colombiers",
                "latitude": 46.70059,
                "longitude": 2.53938
            }
        ],
        "avg_latitude": 47.04038373144532,
        "avg_longitude": 2.687819997711182
    },
    {
        "departement": "19",
        "nom_departement": "Corrèze",
        "station": [
            {
                "codeStation": "00023",
                "name": "Saint-Yrieix-le-Déjalat",
                "latitude": 45.45,
                "longitude": 1.9667
            },
            {
                "codeStation": "000O4",
                "name": "Saint-Angel",
                "latitude": 45.5,
                "longitude": 2.23333
            },
            {
                "codeStation": "000FP",
                "name": "Ségur-le-Château",
                "latitude": 45.43078,
                "longitude": 1.30201
            },
            {
                "codeStation": "000VF",
                "name": "Goulles",
                "latitude": 45.0061,
                "longitude": 2.09461
            },
            {
                "codeStation": "000WX",
                "name": "Uzerche",
                "latitude": 45.4312,
                "longitude": 1.57126
            },
            {
                "codeStation": "STATIC0053",
                "name": "Neuvic",
                "latitude": 45.4071,
                "longitude": 2.24508
            },
            {
                "codeStation": "STATIC0058",
                "name": "Meyrignac - l'Église",
                "latitude": 45.4,
                "longitude": 1.85185
            },
            {
                "codeStation": "STATIC0217",
                "name": "Saint-Cyr-la-Roche",
                "latitude": 45.27123,
                "longitude": 1.39128
            }
        ],
        "avg_latitude": 45.36205125,
        "avg_longitude": 1.8320150000000002
    },
    {
        "departement": "21",
        "nom_departement": "Côte-d'Or",
        "station": [
            {
                "codeStation": "07280",
                "name": "Dijon-Longvic",
                "latitude": 47.2680015563965,
                "longitude": 5.087999820709229
            },
            {
                "codeStation": "000LM",
                "name": "Ancey",
                "latitude": 47.3261,
                "longitude": 4.8267
            },
            {
                "codeStation": "ME050",
                "name": "[MAE] Collège Le Chapitre - CHENÔVE",
                "latitude": 47.29634374008,
                "longitude": 5.0032276153564
            },
            {
                "codeStation": "ME009",
                "name": "[MAE] Collège Boris Vian - TALANT",
                "latitude": 47.339874864633,
                "longitude": 4.9929064750671
            },
            {
                "codeStation": "ME039",
                "name": "[MAE] Collège Roland Dorgelès - LONGVIC",
                "latitude": 47.2947167,
                "longitude": 5.0605583
            },
            {
                "codeStation": "ME109",
                "name": "[MAE] Collège les Hautes Pailles - ECHENON",
                "latitude": 47.111564,
                "longitude": 5.272244
            },
            {
                "codeStation": "000SZ",
                "name": "Busseaut",
                "latitude": 47.7369,
                "longitude": 4.64845
            },
            {
                "codeStation": "STATIC0224",
                "name": "Chamboeuf",
                "latitude": 47.229,
                "longitude": 4.90272
            },
            {
                "codeStation": "STATIC0206",
                "name": "Commarin",
                "latitude": 47.2544,
                "longitude": 4.65422
            }
        ],
        "avg_latitude": 47.31743342901216,
        "avg_longitude": 4.938780690125859
    },
    {
        "departement": "22",
        "nom_departement": "Côtes-d'Armor",
        "station": [
            {
                "codeStation": "07117",
                "name": "Ploumanac'h - Perros",
                "latitude": 48.827,
                "longitude": -3.473
            },
            {
                "codeStation": "00041",
                "name": "Lamballe",
                "latitude": 48.42667,
                "longitude": -2.51667
            },
            {
                "codeStation": "00092",
                "name": "Mûr-de-Bretagne",
                "latitude": 48.2019,
                "longitude": -2.9858
            },
            {
                "codeStation": "000X0",
                "name": "Trégueux",
                "latitude": 48.48333,
                "longitude": -2.73333
            },
            {
                "codeStation": "000Z1",
                "name": "Saint-Igneuc",
                "latitude": 48.41612,
                "longitude": -2.34498
            },
            {
                "codeStation": "000BX",
                "name": "Paimpol",
                "latitude": 48.77841,
                "longitude": -3.04375
            },
            {
                "codeStation": "000OT",
                "name": "Saint-Bihy",
                "latitude": 48.37875,
                "longitude": -2.97025
            },
            {
                "codeStation": "000FN",
                "name": "Saint-Glen",
                "latitude": 48.35838,
                "longitude": -2.52348
            },
            {
                "codeStation": "000GU",
                "name": "Pleslin-Trigavou",
                "latitude": 48.53333,
                "longitude": -2.06667
            },
            {
                "codeStation": "ME052",
                "name": "[MAE] Collège Thalassa - ERQUY",
                "latitude": 48.6297194,
                "longitude": -2.4644389
            },
            {
                "codeStation": "000NU",
                "name": "Louargat",
                "latitude": 48.515844,
                "longitude": -3.333325
            },
            {
                "codeStation": "000VP",
                "name": "Jugon-les-Lacs",
                "latitude": 48.4114,
                "longitude": -2.32146
            },
            {
                "codeStation": "000YI",
                "name": "Lanfains",
                "latitude": 48.35658,
                "longitude": -2.9169
            },
            {
                "codeStation": "000YJ",
                "name": "Plouha",
                "latitude": 48.7067,
                "longitude": -2.9342
            },
            {
                "codeStation": "000YK",
                "name": "Saint-Julien",
                "latitude": 48.4275,
                "longitude": -2.82911
            },
            {
                "codeStation": "STATIC0060",
                "name": "Plaintel",
                "latitude": 48.4232,
                "longitude": -2.79578
            },
            {
                "codeStation": "000ZR",
                "name": "Plouasne",
                "latitude": 48.2929,
                "longitude": -1.96437
            },
            {
                "codeStation": "STATIC0021",
                "name": "Hillion",
                "latitude": 48.5217,
                "longitude": -2.67621
            },
            {
                "codeStation": "STATIC0129",
                "name": "Plélo",
                "latitude": 48.572079,
                "longitude": -2.932142
            },
            {
                "codeStation": "STATIC0170",
                "name": "Grâces",
                "latitude": 48.5442,
                "longitude": -3.15179
            },
            {
                "codeStation": "STATIC0172",
                "name": "Planguenoual",
                "latitude": 48.5536,
                "longitude": -2.57734
            },
            {
                "codeStation": "STATIC0178",
                "name": "Les Rosaires",
                "latitude": 48.5532,
                "longitude": -2.76194
            },
            {
                "codeStation": "STATIC0180",
                "name": "Boqueho - Col de Marhalla",
                "latitude": 48.4871,
                "longitude": -2.99431
            }
        ],
        "avg_latitude": 48.49563532173913,
        "avg_longitude": -2.752662865217391
    },
    {
        "departement": "23",
        "nom_departement": "Creuse",
        "station": [
            {
                "codeStation": "000B9",
                "name": "Gouzon",
                "latitude": 46.194031,
                "longitude": 2.238222
            },
            {
                "codeStation": "000P1",
                "name": "Maisonnisses",
                "latitude": 46.06194,
                "longitude": 1.89812
            },
            {
                "codeStation": "000DR",
                "name": "Sainte-Feyre",
                "latitude": 46.139,
                "longitude": 1.91517
            },
            {
                "codeStation": "000FS",
                "name": "Dontreix",
                "latitude": 45.98333,
                "longitude": 2.56667
            },
            {
                "codeStation": "000FZ",
                "name": "Guéret",
                "latitude": 46.17823,
                "longitude": 1.87466
            },
            {
                "codeStation": "000IF",
                "name": "Châtelus-Malvaleix",
                "latitude": 46.3,
                "longitude": 2.01667
            },
            {
                "codeStation": "000SE",
                "name": "Jarnages",
                "latitude": 46.18136,
                "longitude": 2.08437
            },
            {
                "codeStation": "STATIC0142",
                "name": "Saint-Sulpice-le-Guérétois",
                "latitude": 46.20097,
                "longitude": 1.82826
            }
        ],
        "avg_latitude": 46.154857625,
        "avg_longitude": 2.0527677499999997
    },
    {
        "departement": "24",
        "nom_departement": "Dordogne",
        "station": [
            {
                "codeStation": "000BP",
                "name": "Périgueux",
                "latitude": 45.18333,
                "longitude": 0.71667
            },
            {
                "codeStation": "000AA",
                "name": "Castels",
                "latitude": 44.87184,
                "longitude": 1.05692
            },
            {
                "codeStation": "000CW",
                "name": "Mussidan",
                "latitude": 45.03542,
                "longitude": 0.3629
            },
            {
                "codeStation": "000LO",
                "name": "Daglan",
                "latitude": 44.74231,
                "longitude": 1.19236
            },
            {
                "codeStation": "ME020",
                "name": "[MAE] Lycée Joseph Vallot - LODEVE",
                "latitude": 43.7303528,
                "longitude": 3.31424444
            },
            {
                "codeStation": "000RF",
                "name": "La Chapelle-Aubareil",
                "latitude": 45.01744,
                "longitude": 1.18009
            },
            {
                "codeStation": "000SM",
                "name": "Saint-Saud-Lacoussière",
                "latitude": 45.54386,
                "longitude": 0.81875
            },
            {
                "codeStation": "000RH",
                "name": "La Douze",
                "latitude": 45.06221,
                "longitude": 0.86465
            },
            {
                "codeStation": "000ZI",
                "name": "Saint-André-d'Allas",
                "latitude": 44.8992,
                "longitude": 1.15666
            }
        ],
        "avg_latitude": 44.89844031111111,
        "avg_longitude": 1.1848049377777778
    },
    {
        "departement": "25",
        "nom_departement": "Doubs",
        "station": [
            {
                "codeStation": "000B0",
                "name": "La Chaux ",
                "latitude": 47.021491,
                "longitude": 6.426308
            },
            {
                "codeStation": "000C7",
                "name": "Chenecey-Buillon",
                "latitude": 47.14,
                "longitude": 5.96
            },
            {
                "codeStation": "000P2",
                "name": "Besançon",
                "latitude": 47.24878,
                "longitude": 6.01815
            },
            {
                "codeStation": "000S9",
                "name": "Les Fourgs",
                "latitude": 46.83455,
                "longitude": 6.39953
            },
            {
                "codeStation": "000ED",
                "name": "Arc-sous-Cicon",
                "latitude": 47.05105,
                "longitude": 6.37984
            },
            {
                "codeStation": "000FD",
                "name": "Chapelle-des-Bois",
                "latitude": 46.592749,
                "longitude": 6.090781
            },
            {
                "codeStation": "ME123",
                "name": "[MAE] Collège Lou Blazer - MONTBÉLIARD ",
                "latitude": 47.498495,
                "longitude": 6.790347
            },
            {
                "codeStation": "000SL",
                "name": "Déservillers",
                "latitude": 47.00329,
                "longitude": 6.07123
            },
            {
                "codeStation": "000TO",
                "name": "Arc-sous-Cicon - Crêt Monniot",
                "latitude": 47.0363,
                "longitude": 6.4122
            },
            {
                "codeStation": "000XH",
                "name": "Morteau",
                "latitude": 47.0517,
                "longitude": 6.59663
            },
            {
                "codeStation": "000ZE",
                "name": "Les Pontets",
                "latitude": 46.7188,
                "longitude": 6.17256
            },
            {
                "codeStation": "000ZF",
                "name": "Granges-Narboz",
                "latitude": 46.8964,
                "longitude": 6.31142
            },
            {
                "codeStation": "000ZG",
                "name": "Dommartin",
                "latitude": 46.9233,
                "longitude": 6.316
            },
            {
                "codeStation": "000ZH",
                "name": "La Chaux (Village) ",
                "latitude": 47.0188,
                "longitude": 6.43418
            },
            {
                "codeStation": "000ZX",
                "name": "Vaux-et-Chantegrue",
                "latitude": 46.8077,
                "longitude": 6.25465
            },
            {
                "codeStation": "STATIC0015",
                "name": "Reculfoz - Combes Derniers",
                "latitude": 46.7067,
                "longitude": 6.15393
            },
            {
                "codeStation": "STATIC0109",
                "name": "La Chaux - Village",
                "latitude": 47.020678,
                "longitude": 6.435645
            },
            {
                "codeStation": "STATIC0220",
                "name": "Levier",
                "latitude": 46.9522,
                "longitude": 6.10708
            }
        ],
        "avg_latitude": 46.97349905555555,
        "avg_longitude": 6.296137833333332
    },
    {
        "departement": "26",
        "nom_departement": "Drôme",
        "station": [
            {
                "codeStation": "07577",
                "name": "Montélimar - Ancone",
                "latitude": 44.582000732421896,
                "longitude": 4.737999916076659
            },
            {
                "codeStation": "00004",
                "name": "Granges lès Beaumont",
                "latitude": 45.05,
                "longitude": 4.98
            },
            {
                "codeStation": "00035",
                "name": "Rochegude",
                "latitude": 44.25,
                "longitude": 4.8297
            },
            {
                "codeStation": "000B5",
                "name": "Saint-Sorlin-en-Valloire",
                "latitude": 45.2686111,
                "longitude": 4.943055
            },
            {
                "codeStation": "000M2",
                "name": "Bourg-lès-Valence",
                "latitude": 44.95601,
                "longitude": 4.91023
            },
            {
                "codeStation": "000N3",
                "name": "Crest",
                "latitude": 44.72836,
                "longitude": 5.02722
            },
            {
                "codeStation": "000O9",
                "name": "Recoubeau-Jansac",
                "latitude": 44.65498,
                "longitude": 5.41489
            },
            {
                "codeStation": "000U7",
                "name": "Peyrus",
                "latitude": 44.9136,
                "longitude": 5.10945
            },
            {
                "codeStation": "000X2",
                "name": "Colonzelle",
                "latitude": 44.39307,
                "longitude": 4.90082
            },
            {
                "codeStation": "000FU",
                "name": "Saint-Paul-Trois-Châteaux",
                "latitude": 44.34909,
                "longitude": 4.76574
            },
            {
                "codeStation": "000OS",
                "name": "Saint-Julien-en-Quint",
                "latitude": 44.83784,
                "longitude": 5.29222
            },
            {
                "codeStation": "000PG",
                "name": "Valouse",
                "latitude": 44.46287,
                "longitude": 5.1928
            },
            {
                "codeStation": "000QN",
                "name": "Boulc",
                "latitude": 44.64787,
                "longitude": 5.5675
            },
            {
                "codeStation": "000UF",
                "name": "La Chapelle-en-Vercors -  Combe-de-l'Oscence",
                "latitude": 44.96832,
                "longitude": 5.41674
            },
            {
                "codeStation": "000UI",
                "name": "Herbouilly",
                "latitude": 45.027,
                "longitude": 5.47814
            },
            {
                "codeStation": "000WJ",
                "name": "Bouvante - Derbounouse",
                "latitude": 44.9227,
                "longitude": 5.35823
            },
            {
                "codeStation": "000ZK",
                "name": "Châtillon-en-Diois - Cirque d'Archiane",
                "latitude": 44.744514,
                "longitude": 5.506409
            },
            {
                "codeStation": "STATIC0098",
                "name": "Montjoyer",
                "latitude": 44.4764,
                "longitude": 4.8513
            },
            {
                "codeStation": "STATIC0101",
                "name": "Menglon",
                "latitude": 44.6794,
                "longitude": 5.45677
            },
            {
                "codeStation": "STATIC0202",
                "name": "Saint-Nazaire-le-Désert",
                "latitude": 44.5776,
                "longitude": 5.27464
            },
            {
                "codeStation": "STATIC0203",
                "name": "Marignac-en-Diois",
                "latitude": 44.8093,
                "longitude": 5.34916
            },
            {
                "codeStation": "STATIC0213",
                "name": "La-Chapelle-en-Vercors - Combe de Darbounouse",
                "latitude": 44.9676,
                "longitude": 5.47711
            }
        ],
        "avg_latitude": 44.73941526511008,
        "avg_longitude": 5.174551087094394
    },
    {
        "departement": "27",
        "nom_departement": "Eure",
        "station": [
            {
                "codeStation": "000CP",
                "name": "Pressagny-l'Orgueilleux",
                "latitude": 49.13333,
                "longitude": 1.45
            },
            {
                "codeStation": "000CX",
                "name": "Saint-Philbert-sur-Risle",
                "latitude": 49.29611,
                "longitude": 0.64926
            },
            {
                "codeStation": "ME013",
                "name": "[MAE] Lycée Clément Ader - BERNAY",
                "latitude": 49.097366070558,
                "longitude": 0.60807879836432
            },
            {
                "codeStation": "000QO",
                "name": "Bourth",
                "latitude": 48.76846,
                "longitude": 0.80911
            },
            {
                "codeStation": "STATIC0085",
                "name": "Bernay",
                "latitude": 49.0733,
                "longitude": 0.589829
            }
        ],
        "avg_latitude": 49.073713214111606,
        "avg_longitude": 0.821255559672864
    },
    {
        "departement": "28",
        "nom_departement": "Eure-et-Loir",
        "station": [
            {
                "codeStation": "000MG",
                "name": "Romilly-sur-Aigre",
                "latitude": 47.98225,
                "longitude": 1.28275
            },
            {
                "codeStation": "ME135",
                "name": "[MAE] Collège Louis Blériot - TOURY",
                "latitude": 48.190296,
                "longitude": 1.929377
            },
            {
                "codeStation": "000PN",
                "name": "Senantes",
                "latitude": 48.66667,
                "longitude": 1.56667
            },
            {
                "codeStation": "000VN",
                "name": "Yèvres",
                "latitude": 48.21078,
                "longitude": 1.18717
            },
            {
                "codeStation": "STATIC0071",
                "name": "Dampierre-sous-Brou",
                "latitude": 48.240063,
                "longitude": 1.091564
            },
            {
                "codeStation": "000YX",
                "name": "Aunay-sous-Auneau - Nélu",
                "latitude": 48.4321,
                "longitude": 1.83166
            },
            {
                "codeStation": "STATIC0048",
                "name": "Droue-sur-Drouette",
                "latitude": 48.6018,
                "longitude": 1.69226
            },
            {
                "codeStation": "STATIC0099",
                "name": "Saint-Arnoult-des-Bois",
                "latitude": 48.494081,
                "longitude": 1.26664
            }
        ],
        "avg_latitude": 48.35225499999999,
        "avg_longitude": 1.4810113750000002
    },
    {
        "departement": "29",
        "nom_departement": "Finistère",
        "station": [
            {
                "codeStation": "07110",
                "name": "Brest-Guipavas",
                "latitude": 48.4449996948242,
                "longitude": -4.40999984741211
            },
            {
                "codeStation": "00047",
                "name": "Plabennec",
                "latitude": 48.5033,
                "longitude": -4.425
            },
            {
                "codeStation": "00095",
                "name": "Quimper",
                "latitude": 47.995,
                "longitude": -4.1092
            },
            {
                "codeStation": "00098",
                "name": "Plouguerneau",
                "latitude": 48.6,
                "longitude": -4.5
            },
            {
                "codeStation": "000D3",
                "name": "Plounéventer",
                "latitude": 48.5,
                "longitude": -4.2
            },
            {
                "codeStation": "000D2",
                "name": "Kernoues",
                "latitude": 48.588354,
                "longitude": -4.347839
            },
            {
                "codeStation": "000D8",
                "name": "Brest",
                "latitude": 48.4,
                "longitude": -4.48333
            },
            {
                "codeStation": "ME001",
                "name": "[MAE] Lycée Roz Glas - QUIMPERLE",
                "latitude": 47.886123376213,
                "longitude": -3.5548537731171
            },
            {
                "codeStation": "ME033",
                "name": "[MAE] Collège Kerzouar - SAINT RENAN",
                "latitude": 48.4266361,
                "longitude": -4.6180361
            },
            {
                "codeStation": "ME117",
                "name": "[MAE] Cité Scolaire Jean Moulin - CHATEAULIN",
                "latitude": 48.193867,
                "longitude": -4.087861
            },
            {
                "codeStation": "000NQ",
                "name": "Camaret-sur-Mer",
                "latitude": 48.27497,
                "longitude": -4.59615
            },
            {
                "codeStation": "000OI",
                "name": "Quimperlé",
                "latitude": 47.86658,
                "longitude": -3.56411
            },
            {
                "codeStation": "000RY",
                "name": "Bannalec",
                "latitude": 47.93229,
                "longitude": -3.69759
            },
            {
                "codeStation": "000UU",
                "name": "Spézet - Roch-Toullaëron",
                "latitude": 48.1706,
                "longitude": -3.6313
            },
            {
                "codeStation": "000XE",
                "name": "Plonévez-du-Faou",
                "latitude": 48.2899,
                "longitude": -3.86642
            },
            {
                "codeStation": "STATIC0123",
                "name": "Bannalec",
                "latitude": 47.9205,
                "longitude": -3.66231
            },
            {
                "codeStation": "STATIC0164",
                "name": "Plouigneau",
                "latitude": 48.5635,
                "longitude": -3.6951
            },
            {
                "codeStation": "STATIC0165",
                "name": "Commana",
                "latitude": 48.40092,
                "longitude": -3.96675
            }
        ],
        "avg_latitude": 48.27541889839095,
        "avg_longitude": -4.078658317807179
    },
    {
        "departement": "2A",
        "nom_departement": "Corse-du-Sud",
        "station": [
            {
                "codeStation": "07761",
                "name": "Ajaccio - Campo dell'Oro",
                "latitude": 41.9169998168945,
                "longitude": 8.80000019073486
            },
            {
                "codeStation": "ME018",
                "name": "[MAE] Collège de Porto-Vecchio - PORTO-VECCHIO",
                "latitude": 41.6015611,
                "longitude": 9.27118333
            },
            {
                "codeStation": "000RN",
                "name": "Ota",
                "latitude": 42.25813,
                "longitude": 8.74632
            }
        ],
        "avg_latitude": 41.92556363896483,
        "avg_longitude": 8.939167840244954
    },
    {
        "departement": "2B",
        "nom_departement": "Haute-Corse",
        "station": [
            {
                "codeStation": "07790",
                "name": "Bastia - Poretta",
                "latitude": 42.5480003356934,
                "longitude": 9.48200035095215
            },
            {
                "codeStation": "00015",
                "name": "Corte",
                "latitude": 42.3224983215332,
                "longitude": 9.14999961853027
            },
            {
                "codeStation": "00027",
                "name": "Cardo",
                "latitude": 42.70227,
                "longitude": 9.42797
            },
            {
                "codeStation": "000N5",
                "name": "Oletta",
                "latitude": 42.632,
                "longitude": 9.342
            },
            {
                "codeStation": "000AE",
                "name": "Piedigriggio",
                "latitude": 42.445697145571,
                "longitude": 9.1975323677063
            },
            {
                "codeStation": "000SO",
                "name": "Santa-Severa",
                "latitude": 42.88859,
                "longitude": 9.4731
            },
            {
                "codeStation": "STATIC0069",
                "name": "Luri",
                "latitude": 42.9045,
                "longitude": 9.37636
            },
            {
                "codeStation": "STATIC0084",
                "name": "Piedicroce",
                "latitude": 42.3733,
                "longitude": 9.36935
            },
            {
                "codeStation": "STATIC0194",
                "name": "Casabianda",
                "latitude": 42.09466,
                "longitude": 9.50307
            }
        ],
        "avg_latitude": 42.54572397808862,
        "avg_longitude": 9.369042481909858
    },
    {
        "departement": "30",
        "nom_departement": "Gard",
        "station": [
            {
                "codeStation": "00002",
                "name": "Le Vigan",
                "latitude": 43.98956,
                "longitude": 3.60158
            },
            {
                "codeStation": "00010",
                "name": "Le Grau-du-Roi - Repausset-Levant",
                "latitude": 43.532544,
                "longitude": 4.146814
            },
            {
                "codeStation": "000BZ",
                "name": "Saint-Hilaire-de-Brethmas",
                "latitude": 44.08003,
                "longitude": 4.12478
            },
            {
                "codeStation": "000GK",
                "name": "Thoiras",
                "latitude": 44.081944,
                "longitude": 3.918016
            },
            {
                "codeStation": "ME132",
                "name": "[MAE] Collège Paul Valéry - ROQUEMAURE ",
                "latitude": 44.048139,
                "longitude": 4.780211
            },
            {
                "codeStation": "000OW",
                "name": "Montaren-et-Saint-Médiers",
                "latitude": 44.02869,
                "longitude": 4.3803
            },
            {
                "codeStation": "000OZ",
                "name": "Gallargues-le-Montueux",
                "latitude": 43.71667,
                "longitude": 4.16667
            },
            {
                "codeStation": "000UB",
                "name": "Valleraugue",
                "latitude": 44.0828,
                "longitude": 3.62148
            },
            {
                "codeStation": "000UJ",
                "name": "Chusclan",
                "latitude": 44.147613,
                "longitude": 4.666357
            },
            {
                "codeStation": "000UL",
                "name": "Lussan - Audabiac",
                "latitude": 44.132,
                "longitude": 4.404
            },
            {
                "codeStation": "000WD",
                "name": "Concoules",
                "latitude": 44.378042,
                "longitude": 3.939453
            },
            {
                "codeStation": "STATIC0013",
                "name": "Laudun-l'Ardoise",
                "latitude": 44.1223,
                "longitude": 4.65434
            },
            {
                "codeStation": "000ZB",
                "name": "Saint-Paul-les-Fonts",
                "latitude": 44.08398,
                "longitude": 4.61466
            },
            {
                "codeStation": "000ZW",
                "name": "Lussan - La Lèque",
                "latitude": 44.1893,
                "longitude": 4.35994
            },
            {
                "codeStation": "STATIC0005",
                "name": "Saint-Quentin-la-Poterie",
                "latitude": 44.0411,
                "longitude": 4.44539
            },
            {
                "codeStation": "STATIC0082",
                "name": "Pouzilhac",
                "latitude": 44.0453,
                "longitude": 4.57864
            },
            {
                "codeStation": "ME152",
                "name": "[MAE] - Collège Jean Vilar - Saint Gilles",
                "latitude": 43.685963,
                "longitude": 4.432284
            }
        ],
        "avg_latitude": 44.02270441176471,
        "avg_longitude": 4.284406764705883
    },
    {
        "departement": "31",
        "nom_departement": "Haute-Garonne",
        "station": [
            {
                "codeStation": "07630",
                "name": "Toulouse-Blagnac",
                "latitude": 43.623,
                "longitude": 1.387
            },
            {
                "codeStation": "000HF",
                "name": "Toulouse - Cité de l'Espace",
                "latitude": 43.58592,
                "longitude": 1.492788
            },
            {
                "codeStation": "000LZ",
                "name": "Saint-Hilaire",
                "latitude": 43.42238,
                "longitude": 1.27809
            },
            {
                "codeStation": "ME019",
                "name": "[MAE] Collège Antonin Perbosc - AUTERIVE",
                "latitude": 43.3565556,
                "longitude": 1.46435833
            },
            {
                "codeStation": "ME043",
                "name": "[MAE] Lycée Henri Matisse - CUGNAUX",
                "latitude": 43.590963,
                "longitude": 1.352712
            },
            {
                "codeStation": "ME130",
                "name": "[MAE] Collège Jules Vallès - PORTET SUR GARONNE",
                "latitude": 43.530466,
                "longitude": 1.410252
            },
            {
                "codeStation": "000PU",
                "name": "Castanet-Tolosan",
                "latitude": 43.51591,
                "longitude": 1.49864
            },
            {
                "codeStation": "000SG",
                "name": "Toulouse - Saint-Simon",
                "latitude": 43.5586,
                "longitude": 1.3827
            },
            {
                "codeStation": "000XI",
                "name": "Villaudric",
                "latitude": 43.8348,
                "longitude": 1.44368
            },
            {
                "codeStation": "STATIC0106",
                "name": "Tournefeuille",
                "latitude": 43.58872,
                "longitude": 1.31922
            },
            {
                "codeStation": "STATIC0108",
                "name": "Montaigut-sur-Save",
                "latitude": 43.6831,
                "longitude": 1.24569
            },
            {
                "codeStation": "STATIC0118",
                "name": "Clarac",
                "latitude": 43.104,
                "longitude": 0.622702
            }
        ],
        "avg_latitude": 43.532867883333346,
        "avg_longitude": 1.3248193608333334
    },
    {
        "departement": "32",
        "nom_departement": "Gers",
        "station": [
            {
                "codeStation": "000L2",
                "name": "Saramon",
                "latitude": 43.52318,
                "longitude": 0.76349
            },
            {
                "codeStation": "STATIC0132",
                "name": "Bouzon-Gellenave",
                "latitude": 43.6984,
                "longitude": 0.0235525
            },
            {
                "codeStation": "STATIC0205",
                "name": "Tarsac",
                "latitude": 43.66788,
                "longitude": -0.112
            },
            {
                "codeStation": "000ZU",
                "name": "Montréal-du-Gers",
                "latitude": 43.9239,
                "longitude": 0.167716
            },
            {
                "codeStation": "STATIC0035",
                "name": "Samatan",
                "latitude": 43.49286,
                "longitude": 0.92976
            }
        ],
        "avg_latitude": 43.661243999999996,
        "avg_longitude": 0.3545037
    },
    {
        "departement": "33",
        "nom_departement": "Gironde",
        "station": [
            {
                "codeStation": "07510",
                "name": "Bordeaux-Mérignac",
                "latitude": 44.832,
                "longitude": -0.692
            },
            {
                "codeStation": "00053",
                "name": "La Réole",
                "latitude": 44.5961,
                "longitude": -0.0619
            },
            {
                "codeStation": "00060",
                "name": "Canéjan",
                "latitude": 44.7636,
                "longitude": -0.6522
            },
            {
                "codeStation": "00063",
                "name": "La Teste de Buch",
                "latitude": 44.6328,
                "longitude": -1.1442
            },
            {
                "codeStation": "000F8",
                "name": "Belin-Béliet",
                "latitude": 44.50602,
                "longitude": -0.76389
            },
            {
                "codeStation": "000U1",
                "name": "Frontenac",
                "latitude": 44.7381,
                "longitude": -0.16254
            },
            {
                "codeStation": "000DZ",
                "name": "Lacanau-Océan",
                "latitude": 45.00135,
                "longitude": -1.19415
            },
            {
                "codeStation": "000EG",
                "name": "Les Salles-de-Castillon",
                "latitude": 44.9167,
                "longitude": 0.0311
            },
            {
                "codeStation": "000EV",
                "name": "Le Teich",
                "latitude": 44.63177,
                "longitude": -1.02155
            },
            {
                "codeStation": "000GT",
                "name": "Bouliac",
                "latitude": 44.81724,
                "longitude": -0.4841
            },
            {
                "codeStation": "ME051",
                "name": "[MAE] Lycée des Graves - GRADIGNAN",
                "latitude": 44.759660609667,
                "longitude": -0.62069950103762
            },
            {
                "codeStation": "ME034",
                "name": "[MAE] Lycée Victor Louis - TALENCE",
                "latitude": 44.8032556,
                "longitude": -0.5917917
            },
            {
                "codeStation": "ME120",
                "name": "[MAE] Lycée de la Mer - GUJAN-MESTRAS ",
                "latitude": 44.643818,
                "longitude": -1.059218
            },
            {
                "codeStation": "ME124",
                "name": "[MAE] Collège Les Eyquems - MERIGNAC",
                "latitude": 44.827203,
                "longitude": -0.645302
            },
            {
                "codeStation": "000TM",
                "name": "Saint-Germain-du-Puch",
                "latitude": 44.85,
                "longitude": -0.31667
            },
            {
                "codeStation": "000YU",
                "name": "Vensac",
                "latitude": 45.4079,
                "longitude": -1.03674
            }
        ],
        "avg_latitude": 44.7954698256042,
        "avg_longitude": -0.6509907000648512
    },
    {
        "departement": "34",
        "nom_departement": "Hérault",
        "station": [
            {
                "codeStation": "07643",
                "name": "Montpellier - Fréjorgues",
                "latitude": 43.57692,
                "longitude": 3.96322
            },
            {
                "codeStation": "000F3",
                "name": "Agde - Le Grau",
                "latitude": 43.2826,
                "longitude": 3.4651
            },
            {
                "codeStation": "000H8",
                "name": "Montpellier",
                "latitude": 43.6,
                "longitude": 3.8833333
            },
            {
                "codeStation": "000I1",
                "name": "Laroque",
                "latitude": 43.9166667,
                "longitude": 3.7333333
            },
            {
                "codeStation": "000I2",
                "name": "Prades-sur-Vernazobre",
                "latitude": 43.45,
                "longitude": 2.9833333
            },
            {
                "codeStation": "000E7",
                "name": "Saint-Jean-de-Védas - La Fermaude",
                "latitude": 43.5833333,
                "longitude": 3.8333333
            },
            {
                "codeStation": "000J8",
                "name": "Béziers",
                "latitude": 43.34762,
                "longitude": 3.21899
            },
            {
                "codeStation": "000L5",
                "name": "Valflaunès",
                "latitude": 43.80011,
                "longitude": 3.87234
            },
            {
                "codeStation": "000L7",
                "name": "Aniane",
                "latitude": 43.6845083544836,
                "longitude": 3.58652114868164
            },
            {
                "codeStation": "000O8",
                "name": "Saint-Clément-de-Rivière",
                "latitude": 43.68333,
                "longitude": 3.83333
            },
            {
                "codeStation": "000FO",
                "name": "Pomérols",
                "latitude": 43.39139,
                "longitude": 3.49944
            },
            {
                "codeStation": "000OB",
                "name": "Sauteyrargues",
                "latitude": 43.83697,
                "longitude": 3.91859
            },
            {
                "codeStation": "000QM",
                "name": "Saint-Martin-de-Londres",
                "latitude": 43.78333,
                "longitude": 3.73333
            },
            {
                "codeStation": "000TL",
                "name": "Clermont-l'Hérault",
                "latitude": 43.62895,
                "longitude": 3.43262
            },
            {
                "codeStation": "000ZN",
                "name": "Galargues",
                "latitude": 43.7701,
                "longitude": 4.0207
            },
            {
                "codeStation": "STATIC0006",
                "name": "Lunel",
                "latitude": 43.67778,
                "longitude": 4.13611
            },
            {
                "codeStation": "STATIC0016",
                "name": "Rosis",
                "latitude": 43.62124,
                "longitude": 3.00271
            },
            {
                "codeStation": "STATIC0100",
                "name": "Le Soulié - le Moulinet ",
                "latitude": 43.54199,
                "longitude": 2.73608
            },
            {
                "codeStation": "STATIC0188",
                "name": "Avène (Serviès)",
                "latitude": 43.72245,
                "longitude": 3.062661
            },
            {
                "codeStation": "STATIC0189",
                "name": "Roqueredonde - Mas de Grezes",
                "latitude": 43.79989,
                "longitude": 3.21281
            }
        ],
        "avg_latitude": 43.63495891772418,
        "avg_longitude": 3.556394267434082
    },
    {
        "departement": "35",
        "nom_departement": "Ille-et-Vilaine",
        "station": [
            {
                "codeStation": "07130",
                "name": "Rennes-St Jacques",
                "latitude": 48.07,
                "longitude": -1.74
            },
            {
                "codeStation": "000C5",
                "name": "Laillé",
                "latitude": 47.96935,
                "longitude": -1.74551
            },
            {
                "codeStation": "000X6",
                "name": "Saint-Gonlay",
                "latitude": 48.11343,
                "longitude": -2.0661
            },
            {
                "codeStation": "000GI",
                "name": "Hédé-Bazouges ",
                "latitude": 48.3,
                "longitude": -1.8
            },
            {
                "codeStation": "ME044",
                "name": "[MAE] Lycée Bertrand d'Argentré - VITRE",
                "latitude": 48.120194,
                "longitude": -1.213333
            },
            {
                "codeStation": "ME146",
                "name": "[MAE] Collège Camille Guérin - Saint-Méen-le-Grand",
                "latitude": 48.1919,
                "longitude": -2.1918
            },
            {
                "codeStation": "000WY",
                "name": "Saint-Jean-sur-Couesnon",
                "latitude": 48.29012,
                "longitude": -1.36835
            },
            {
                "codeStation": "STATIC0218",
                "name": "Vergéal",
                "latitude": 48.03746,
                "longitude": -1.2667
            }
        ],
        "avg_latitude": 48.136556750000004,
        "avg_longitude": -1.673974125
    },
    {
        "departement": "36",
        "nom_departement": "Indre",
        "station": [
            {
                "codeStation": "000YQ",
                "name": "Langé",
                "latitude": 47.077566,
                "longitude": 1.4923
            }
        ],
        "avg_latitude": 47.077566,
        "avg_longitude": 1.4923
    },
    {
        "departement": "37",
        "nom_departement": "Indre-et-Loire",
        "station": [
            {
                "codeStation": "07240",
                "name": "Tours - Parcay-Meslay",
                "latitude": 47.4444444,
                "longitude": 0.7272222222222222
            },
            {
                "codeStation": "00033",
                "name": "Véretz",
                "latitude": 47.3667,
                "longitude": 0.8
            },
            {
                "codeStation": "000M4",
                "name": "Ciran",
                "latitude": 47.061466,
                "longitude": 0.889194
            },
            {
                "codeStation": "000MP",
                "name": "Continvoir",
                "latitude": 47.3882,
                "longitude": 0.21758
            },
            {
                "codeStation": "000MW",
                "name": "Le Grand-Pressigny",
                "latitude": 46.92017,
                "longitude": 0.8038
            },
            {
                "codeStation": "000QD",
                "name": "[MAE] Château-Renault - Collège André Bauchant",
                "latitude": 47.5981,
                "longitude": 0.9165
            },
            {
                "codeStation": "000UY",
                "name": "Courcelles-de-Touraine",
                "latitude": 47.48222,
                "longitude": 0.30812
            },
            {
                "codeStation": "STATIC0147",
                "name": "Tauxigny",
                "latitude": 47.2032,
                "longitude": 0.82822
            }
        ],
        "avg_latitude": 47.308062549999995,
        "avg_longitude": 0.6863295277777777
    },
    {
        "departement": "38",
        "nom_departement": "Isère",
        "station": [
            {
                "codeStation": "00009",
                "name": "Bouvesse-Quirieu",
                "latitude": 45.78074,
                "longitude": 5.44012
            },
            {
                "codeStation": "00014",
                "name": "Saint-Martin-d'Hères",
                "latitude": 45.1667,
                "longitude": 5.7667
            },
            {
                "codeStation": "00076",
                "name": "Le-Péage-de-Roussillon",
                "latitude": 45.3756,
                "longitude": 4.7969
            },
            {
                "codeStation": "00094",
                "name": "Miribel-les-Echelles",
                "latitude": 45.42917,
                "longitude": 5.70917
            },
            {
                "codeStation": "000A5",
                "name": "Sablons",
                "latitude": 45.3192,
                "longitude": 4.7744
            },
            {
                "codeStation": "000K1",
                "name": "L'Isle-d'Abeau",
                "latitude": 45.61813,
                "longitude": 5.23546
            },
            {
                "codeStation": "000T0",
                "name": "Lans-en-Vercors - Les Bruyères",
                "latitude": 45.1,
                "longitude": 5.57
            },
            {
                "codeStation": "000QU",
                "name": "Brion",
                "latitude": 45.29351,
                "longitude": 5.33742
            },
            {
                "codeStation": "000Z0",
                "name": "Trept",
                "latitude": 45.68561,
                "longitude": 5.31617
            },
            {
                "codeStation": "000Z9",
                "name": "Voiron",
                "latitude": 45.36395,
                "longitude": 5.59209
            },
            {
                "codeStation": "000BN",
                "name": "Voiron - Centre ville",
                "latitude": 45.36395,
                "longitude": 5.59209
            },
            {
                "codeStation": "000BM",
                "name": "Theys (760m)",
                "latitude": 45.30136,
                "longitude": 5.99534
            },
            {
                "codeStation": "000CD",
                "name": "St-Christophe-sur-Guiers - Le Habert de la Ruchère",
                "latitude": 45.400129,
                "longitude": 5.80109
            },
            {
                "codeStation": "000DJ",
                "name": "Veyrins-Thuellin",
                "latitude": 45.61667,
                "longitude": 5.53333
            },
            {
                "codeStation": "000DV",
                "name": "Grenay",
                "latitude": 45.66317,
                "longitude": 5.07987
            },
            {
                "codeStation": "000EP",
                "name": "Villefontaine",
                "latitude": 45.6125,
                "longitude": 5.14558
            },
            {
                "codeStation": "000GS",
                "name": "Lans-en-Vercors - Les Allières",
                "latitude": 45.0949758,
                "longitude": 5.6001955
            },
            {
                "codeStation": "000HT",
                "name": "Engins",
                "latitude": 45.17957,
                "longitude": 5.6172
            },
            {
                "codeStation": "000IA",
                "name": "Méaudre",
                "latitude": 45.130646,
                "longitude": 5.528844
            },
            {
                "codeStation": "000LQ",
                "name": "Beaucroissant",
                "latitude": 45.34229,
                "longitude": 5.46942
            },
            {
                "codeStation": "ME102",
                "name": "[MAE] Collège Les Mattons - VIZILLE",
                "latitude": 45.087092,
                "longitude": 5.775222
            },
            {
                "codeStation": "000QI",
                "name": "Noyarey",
                "latitude": 45.2476,
                "longitude": 5.62837
            },
            {
                "codeStation": "000QY",
                "name": "Chuzelles",
                "latitude": 45.58484,
                "longitude": 4.87795
            },
            {
                "codeStation": "000RJ",
                "name": "Luzinay",
                "latitude": 45.58895,
                "longitude": 4.95829
            },
            {
                "codeStation": "000SD",
                "name": "Theys (850m)",
                "latitude": 45.30136,
                "longitude": 5.99534
            },
            {
                "codeStation": "000XB",
                "name": "Montferrat",
                "latitude": 45.48591,
                "longitude": 5.59072
            },
            {
                "codeStation": "STATIC0009",
                "name": "Sérézin-de-la-Tour",
                "latitude": 45.5506,
                "longitude": 5.34057
            },
            {
                "codeStation": "STATIC0030",
                "name": "Brézins",
                "latitude": 45.35202,
                "longitude": 5.30692
            },
            {
                "codeStation": "STATIC0181",
                "name": "Lavars",
                "latitude": 44.8491,
                "longitude": 5.67359
            },
            {
                "codeStation": "STATIC0216",
                "name": "Saint-Pancrasse",
                "latitude": 45.2932,
                "longitude": 5.86185
            }
        ],
        "avg_latitude": 45.372618093333344,
        "avg_longitude": 5.4636737166666665
    },
    {
        "departement": "39",
        "nom_departement": "Jura",
        "station": [
            {
                "codeStation": "000XP",
                "name": "Lamoura",
                "latitude": 46.403,
                "longitude": 5.98545
            },
            {
                "codeStation": "STATIC0079",
                "name": "Viry",
                "latitude": 46.29945,
                "longitude": 5.73778
            },
            {
                "codeStation": "STATIC0192",
                "name": "Saint-Claude",
                "latitude": 46.4358,
                "longitude": 5.85165
            },
            {
                "codeStation": "STATIC0200",
                "name": "Nanchez (Prénovel)",
                "latitude": 46.5125,
                "longitude": 5.84484
            }
        ],
        "avg_latitude": 46.412687500000004,
        "avg_longitude": 5.8549299999999995
    },
    {
        "departement": "40",
        "nom_departement": "Landes",
        "station": [
            {
                "codeStation": "07607",
                "name": "Mont-de-Marsan",
                "latitude": 43.9119987487793,
                "longitude": -0.497999995946884
            },
            {
                "codeStation": "000PS",
                "name": "Téthieu",
                "latitude": 43.75,
                "longitude": -0.98333
            },
            {
                "codeStation": "STATIC0062",
                "name": "Mézos",
                "latitude": 44.0696,
                "longitude": -1.15905
            },
            {
                "codeStation": "STATIC0067",
                "name": "Magescq",
                "latitude": 43.7806,
                "longitude": -1.21693
            },
            {
                "codeStation": "STATIC0074",
                "name": "Léon",
                "latitude": 43.8721,
                "longitude": -1.32656
            }
        ],
        "avg_latitude": 43.876859749755866,
        "avg_longitude": -1.0367739991893767
    },
    {
        "departement": "41",
        "nom_departement": "Loir-et-Cher",
        "station": [
            {
                "codeStation": "000MB",
                "name": "Tour-en-Sologne",
                "latitude": 47.54007,
                "longitude": 1.50525
            },
            {
                "codeStation": "ME012",
                "name": "[MAE] Collège Lavoisier - OUCQUES",
                "latitude": 47.822352403877,
                "longitude": 1.2978202342987
            },
            {
                "codeStation": "ME137",
                "name": "[MAE] Collège Les Provinces - BLOIS",
                "latitude": 47.6010799,
                "longitude": 1.3392437
            },
            {
                "codeStation": "000OG",
                "name": "Orçay",
                "latitude": 47.29085,
                "longitude": 2.11162
            },
            {
                "codeStation": "000PT",
                "name": "Blois - L'Arrou",
                "latitude": 47.586096,
                "longitude": 1.302747
            },
            {
                "codeStation": "000RI",
                "name": "Yvoy-le-Marron",
                "latitude": 47.63219,
                "longitude": 1.85276
            },
            {
                "codeStation": "STATIC0141",
                "name": "Fougères-sur-Bièvre",
                "latitude": 47.44869,
                "longitude": 1.34237
            }
        ],
        "avg_latitude": 47.56018975769671,
        "avg_longitude": 1.5359729906141002
    },
    {
        "departement": "42",
        "nom_departement": "Loire",
        "station": [
            {
                "codeStation": "000O5",
                "name": "Bard",
                "latitude": 45.58662,
                "longitude": 4.01469
            },
            {
                "codeStation": "000O7",
                "name": "Saint-Bonnet-le-Château",
                "latitude": 45.424,
                "longitude": 4.067
            },
            {
                "codeStation": "000DX",
                "name": "Burdignes",
                "latitude": 45.27013,
                "longitude": 4.56832
            },
            {
                "codeStation": "000FG",
                "name": "Pélussin",
                "latitude": 45.41808,
                "longitude": 4.68248
            },
            {
                "codeStation": "000OX",
                "name": "Veauchette",
                "latitude": 45.56195,
                "longitude": 4.26508
            },
            {
                "codeStation": "000PW",
                "name": "Burdignes",
                "latitude": 45.24673,
                "longitude": 4.52124
            },
            {
                "codeStation": "000VL",
                "name": "Juré",
                "latitude": 45.8868,
                "longitude": 3.90255
            },
            {
                "codeStation": "000VM",
                "name": "Sail-les-Bains",
                "latitude": 46.23823,
                "longitude": 3.84706
            },
            {
                "codeStation": "000WN",
                "name": "Saint-Martin-la-Sauveté",
                "latitude": 45.850354,
                "longitude": 3.900738
            },
            {
                "codeStation": "STATIC0125",
                "name": "Châtelneuf",
                "latitude": 45.6341,
                "longitude": 3.95443
            }
        ],
        "avg_latitude": 45.6116994,
        "avg_longitude": 4.1723588
    },
    {
        "departement": "43",
        "nom_departement": "Haute-Loire",
        "station": [
            {
                "codeStation": "07471",
                "name": "Le Puy-Loudes",
                "latitude": 45.075000762939496,
                "longitude": 3.76500010490417
            },
            {
                "codeStation": "000G7",
                "name": "Saint-Haon",
                "latitude": 44.85,
                "longitude": 3.75
            },
            {
                "codeStation": "000U3",
                "name": "Saint-Didier-en-Velay",
                "latitude": 45.30234,
                "longitude": 4.27561
            },